[
    {
        "id": "851",
        "lat": "57.3148",
        "lng": "13.8170",
        "name": "Store Mosse Nationalpark",
        "description": "naturpark",
        "price_range": "0-25",
        "municipality": "Värnamo kommun"
    },
    {
        "id": "852",
        "lat": "56.8817",
        "lng": "14.8090",
        "name": "Växjösjöarna",
        "description": "sjöar",
        "price_range": "0-25",
        "municipality": "Växjö kommun"
    },
    {
        "id": "853",
        "lat": "57.1953",
        "lng": "17.0474",
        "name": "Trollskogen på Öland",
        "description": "skog",
        "price_range": "0-25",
        "municipality": "Borgholm kommun"
    },
    {
        "id": "854",
        "lat": "56.6004",
        "lng": "14.8405",
        "name": "Åsnen Nationalpark",
        "description": "naturpark",
        "price_range": "0-25",
        "municipality": "Alvesta kommun"
    },
    {
        "id": "855",
        "lat": "58.0370",
        "lng": "14.3485",
        "name": "Visingsö",
        "description": "ö",
        "price_range": "0-25",
        "municipality": "Jönköping kommun"
    },
    {
        "id": "856",
        "lat": "56.5508",
        "lng": "14.1416",
        "name": "Linnés Råshult",
        "description": "trädgård",
        "price_range": "0-25",
        "municipality": "Älmhult kommun"
    },
    {
        "id": "857",
        "lat": "57.1600",
        "lng": "15.8600",
        "name": "Emån",
        "description": "flod",
        "price_range": "0-25",
        "municipality": "Högsby kommun"
    },
    {
        "id": "858",
        "lat": "57.2939",
        "lng": "16.4467",
        "name": "Blå Jungfrun Nationalpark",
        "description": "naturpark",
        "price_range": "0-25",
        "municipality": "Oskarshamn kommun"
    },
    {
        "id": "859",
        "lat": "56.7185",
        "lng": "15.8156",
        "name": "Korrö Hantverksby",
        "description": "by",
        "price_range": "0-25",
        "municipality": "Tingsryd kommun"
    },
    {
        "id": "860",
        "lat": "57.4296",
        "lng": "13.5951",
        "name": "Isaberg Mountain Resort",
        "description": "resort",
        "price_range": "0-25",
        "municipality": "Gislaved kommun"
    },
    {
        "id": "861",
        "lat": "57.7189",
        "lng": "15.4994",
        "name": "Höglandets led",
        "description": "led",
        "price_range": "0-25",
        "municipality": "Nässjö kommun"
    },
    {
        "id": "862",
        "lat": "57.6662",
        "lng": "14.9717",
        "name": "Eksjö",
        "description": "stad",
        "price_range": "0-25",
        "municipality": "Eksjö kommun"
    },
    {
        "id": "863",
        "lat": "56.6654",
        "lng": "14.7301",
        "name": "Naturum Kronoberg",
        "description": "naturum",
        "price_range": "0-25",
        "municipality": "Växjö kommun"
    },
    {
        "id": "864",


        "lat": "58.0914",
        "lng": "14.6612",
        "name": "Östra Vätterbranterna",
        "description": "landskap",
        "price_range": "0-25",
        "municipality": "Jönköping kommun"
    },
    {
        "id": "865",
        "lat": "57.5038",
        "lng": "15.1211",
        "name": "Skurugata & Skuruhatt",
        "description": "ravin",
        "price_range": "0-25",
        "municipality": "Eksjö kommun"
    },
    {
        "id": "866",
        "lat": "56.9725",
        "lng": "14.5870",
        "name": "Echo Valley",
        "description": "dal",
        "price_range": "0-25",
        "municipality": "Växjö kommun"
    },
    {
        "id": "867",
        "lat": "56.7731",
        "lng": "15.3182",
        "name": "Getaryggen",
        "description": "skog",
        "price_range": "0-25",
        "municipality": "Vetlanda kommun"
    },
    {
        "id": "868",
        "lat": "57.6658",
        "lng": "15.8531",
        "name": "Vimmerby",
        "description": "stad",
        "price_range": "0-25",
        "municipality": "Vimmerby kommun"
    },
    {
        "id": "869",
        "lat": "56.8834",
        "lng": "16.7083",
        "name": "Ramen Sjön",
        "description": "sjö",
        "price_range": "0-25",
        "municipality": "Nybro kommun"
    },
    {
        "id": "870",
        "lat": "57.7623",
        "lng": "15.9473",
        "name": "Norra Kvill Nationalpark",
        "description": "naturpark",
        "price_range": "0-25",
        "municipality": "Vimmerby kommun"
    },
    {
        "id": "871",
        "lat": "58.2997",
        "lng": "14.2908",
        "name": "Gränna och Visingsö",
        "description": "ö",
        "price_range": "0-25",
        "municipality": "Jönköping kommun"
    },
    {
        "id": "872",
        "lat": "56.8724",
        "lng": "15.0113",
        "name": "Glassriket",
        "description": "område",
        "price_range": "0-25",
        "municipality": "Nybro kommun"
    },
    {
        "id": "873",
        "lat": "56.9958",
        "lng": "14.5772",
        "name": "Hälleberga naturreservat",
        "description": "naturreservat",
        "price_range": "0-25",
        "municipality": "Nybro kommun"
    },
    {
        "id": "874",
        "lat": "56.6824",
        "lng": "14.1384",
        "name": "Stenbrohults naturreservat",
        "description": "naturreservat",
        "price_range": "0-25",
        "municipality": "Älmhult kommun"
    },
    {
        "id": "875",
        "lat": "56.5083",
        "lng": "15.6473",
        "name": "Holmhagsfallet",
        "description": "vattenfall",
        "price_range": "0-25",
        "municipality": "Växjö kommun"
    },
    {
        "id": "876",
        "lat": "57.0951",
        "lng": "15.4023",
        "name": "Naturreservatet Kvill",
        "description": "naturreservat",
        "price_range": "0-25",
        "municipality": "Vimmerby kommun"
    },
    {
        "id": "877",
        "lat": "57.6537",
        "lng": "14.6966",
        "name": "Nässjöområdets vandringsleder",
        "description": "leder",
        "price_range": "0-25",
        "municipality": "Nässjö kommun"
    },
    {
        "id": "878",
        "lat": "57.1004",
        "lng": "17.0361",
        "name": "Byxelkroks golfbana på Öland",
        "description": "golfbana",
        "price_range": "0-25",
        "municipality": "Borgholm kommun"
    },
    {
        "id": "879",
        "lat": "56.6537",
        "lng": "14.8625",
        "name": "Asnenområdet",
        "description": "sjösystem",
        "price_range": "0-25",
        "municipality": "Tingsryd kommun"
    },
    {
        "id": "880",
        "lat": "56.9001",
        "lng": "14.5528",
        "name": "Alvesta och dess omgivningar",
        "description": "natur",
        "price_range": "0-25",
        "municipality": "Alvesta kommun"
    },
    {
        "id": "881",
        "lat": "57.4286",
        "lng": "15.0847",
        "name": "Njudungsgården i Vetlanda",
        "description": "område",
        "price_range": "0-25",
        "municipality": "Vetlanda kommun"
    },
    {
        "id": "882",
        "lat": "57.1917",
        "lng": "13.5876",
        "name": "Stora Mosse Vandringsled",
        "description": "led",
        "price_range": "0-25",
        "municipality": "Värnamo kommun"
    },
    {
        "id": "883",
        "lat": "57.7592",
        "lng": "16.6372",
        "name": "Västervik Skärgård",
        "description": "skärgård",
        "price_range": "0-25",
        "municipality": "Västervik kommun"
    },
    {
        "id": "884",
        "lat": "56.5526",
        "lng": "15.0364",
        "name": "Huseby Bruk",
        "description": "bruk",
        "price_range": "0-25",
        "municipality": "Växjö kommun"
    },
    {
        "id": "885",
        "lat": "57.0281",
        "lng": "15.6718",
        "name": "Södra Vedbo",
        "description": "skog",
        "price_range": "0-25",
        "municipality": "Eksjö kommun"
    },
    {
        "id": "886",
        "lat": "57.4938",
        "lng": "15.8379",
        "name": "Målilla Älgpark",
        "description": "park",
        "price_range": "0-25",
        "municipality": "Hultsfred kommun"
    },
    {
        "id": "887",
        "lat": "57.5184",
        "lng": "14.6641",
        "name": "Bodaforsleden",
        "description": "led",
        "price_range": "0-25",
        "municipality": "Nässjö kommun"
    },
    {
        "id": "888",
        "lat": "56.9731",
        "lng": "14.5451",
        "name": "Möckeln",
        "description": "sjö",
        "price_range": "0-25",
        "municipality": "Älmhult kommun"
    },
    {
        "id": "889",
        "lat": "57.2939",
        "lng": "16.4467",
        "name": "Silveråsen Naturreservat",
        "description": "naturreservat",
        "price_range": "0-25",
        "municipality": "Oskarshamn kommun"
    },
    {
        "id": "890",
        "lat": "58.0370",
        "lng": "14.3485",
        "name": "Hjorten Arena i Tranås",
        "description": "arena",
        "price_range": "0-25",
        "municipality": "Tranås kommun"
    },
    {
        "id": "891",
        "lat": "57.1638",
        "lng": "14.6736",
        "name": "Ramkvilla och omgivning",
        "description": "natur",
        "price_range": "0-25",
        "municipality": "Vetlanda kommun"
    },
    {
        "id": "892",
        "lat": "57.4234",
        "lng": "14.8417",
        "name": "Björköby",
        "description": "by",
        "price_range": "0-25",
        "municipality": "Vetlanda kommun"
    },
    {
        "id": "893",
        "lat": "57.7512",
        "lng": "16.6447",
        "name": "Naturum Västervik",
        "description": "naturum",
        "price_range": "0-25",
        "municipality": "Västervik kommun"
    },
    {
        "id": "894",
        "lat": "57.5029",
        "lng": "14.1481",
        "name": "Tabergstoppen",
        "description": "berg",
        "price_range": "0-25",
        "municipality": "Jönköping kommun"
    },
    {
        "id": "895",
        "lat": "56.6675",
        "lng": "15.8564",
        "name": "Flaten och Skirösjön",
        "description": "sjöar",
        "price_range": "0-25",
        "municipality": "Vetlanda kommun"
    },
    {
        "id": "896",
        "lat": "57.3148",
        "lng": "15.2837",
        "name": "Hässlöleden",
        "description": "led",
        "price_range": "0-25",
        "municipality": "Vimmerby kommun"
    },
    {
        "id": "897",
        "lat": "56.8876",
        "lng": "14.8056",
        "name": "Evedals Värdshus",
        "description": "värdshus",
        "price_range": "0-25",
        "municipality": "Växjö kommun"
    },
    {
        "id": "898",
        "lat": "56.9567",
        "lng": "15.5002",
        "name": "Kosta Älgpark",
        "description": "park",
        "price_range": "0-25",
        "municipality": "Lessebo kommun"
    },
    {
        "id": "899",
        "lat": "57.3531",
        "lng": "15.4318",
        "name": "Aboda Klint",
        "description": "klint",
        "price_range": "0-25",
        "municipality": "Högsby kommun"
    },
    {
        "id": "900",
        "lat": "57.0759",
        "lng": "14.5886",
        "name": "Uppvidinge Trail",
        "description": "trail",
        "price_range": "0-25",
        "municipality": "Uppvidinge kommun"
    },
    {
        "id": "901",
        "lat": "56.7562",
        "lng": "16.6534",
        "name": "Ottenby Naturreservat",
        "description": "naturreservat",
        "price_range": "0-25",
        "province": "Öland"
    },
    {
        "id": "902",
        "lat": "56.8799",
        "lng": "16.8287",
        "name": "Långe Jan",
        "description": "fyr",
        "price_range": "0-25",
        "province": "Öland"
    },
    {
        "id": "903",
        "lat": "56.8307",
        "lng": "16.6520",
        "name": "Eketorps borg",
        "description": "borg",
        "price_range": "0-25",
        "province": "Öland"
    },
    {
        "id": "904",
        "lat": "57.1004",
        "lng": "17.0361",
        "name": "Grankullavik",
        "description": "strand",
        "price_range": "0-25",
        "province": "Öland"
    },
    {
        "id": "905",
        "lat": "56.7405",
        "lng": "16.7783",
        "name": "Stora Alvaret",
        "description": "stäpp",
        "price_range": "0-25",
        "province": "Öland"
    },
    {
        "id": "906",
        "lat": "56.7500",
        "lng": "16.6333",
        "name": "Vickleby ängar",
        "description": "ängar",
        "price_range": "0-25",
        "province": "Öland"
    },
    {
        "id": "907",
        "lat": "56.7854",
        "lng": "16.6702",
        "name": "Mörbylånga",
        "description": "vandringsled",
        "price_range": "0-25",
        "province": "Öland"
    },
    {
        "id": "908",
        "lat": "56.8200",
        "lng": "16.7200",
        "name": "Näckrosleden vid Kastlösa",
        "description": "led",
        "price_range": "0-25",
        "province": "Öland"
    },
    {
        "id": "909",
        "lat": "56.8050",
        "lng": "16.7250",
        "name": "Kapelludden",
        "description": "kapell",
        "price_range": "0-25",
        "province": "Öland"
    },
    {
        "id": "910",
        "lat": "56.7834",
        "lng": "16.8050",
        "name": "Hornsjön",
        "description": "sjö",
        "price_range": "0-25",
        "province": "Öland"
    },
    {
        "id": "911",
        "lat": "56.7000",
        "lng": "16.4000",
        "name": "Beijershamn",
        "description": "fågelskådning",
        "price_range": "0-25",
        "province": "Öland"
    },
    {
        "id": "912",
        "lat": "56.8500",
        "lng": "16.6500",
        "name": "Solliden Slott",
        "description": "slott",
        "price_range": "0-25",
        "province": "Öland"
    },
    {
        "id": "913",
        "lat": "56.7471",
        "lng": "16.7042",
        "name": "Hulterstad ödekyrkogård",
        "description": "kyrkogård",
        "price_range": "0-25",
        "province": "Öland"
    },
    {
        "id": "914",
        "lat": "56.8483",
        "lng": "16.6674",
        "name": "Borgholms Slottsruin",
        "description": "ruin",
        "price_range": "0-25",
        "province": "Öland"
    },
    {
        "id": "915",
        "lat": "56.7419",
        "lng": "16.6433",
        "name": "Sebybadet",
        "description": "badplats",
        "price_range": "0-25",
        "province": "Öland"
    },
    {
        "id": "916",
        "lat": "56.6667",
        "lng": "16.5333",
        "name": "Trollskogen",
        "description": "skog",
        "price_range": "0-25",
        "province": "Öland"
    },
    {
        "id": "917",
        "lat": "56.8500",
        "lng": "16.7000",
        "name": "Böda Sand",
        "description": "strand",
        "price_range": "0-25",
        "province": "Öland"
    },
    {
        "id": "918",
        "lat": "56.7000",
        "lng": "16.4500",
        "name": "Knisa mosse",
        "description": "mosse",
        "price_range": "0-25",
        "province": "Öland"
    },
    {
        "id": "919",
        "lat": "56.6500",
        "lng": "16.4500",
        "name": "Bläsinge hamn",
        "description": "hamn",
        "price_range": "0-25",
        "province": "Öland"
    },
    {
        "id": "920",
        "lat": "56.8300",
        "lng": "16.6500",
        "name": "Jordhamnsåsen",
        "description": "ås",
        "price_range": "0-25",
        "province": "Öland"
    },
    {
        "id": "921",
        "lat": "56.8050",
        "lng": "16.6920",
        "name": "Albrunna lund",
        "description": "lund",
        "price_range": "0-25",
        "province": "Öland"
    },
    {
        "id": "922",
        "lat": "56.7850",
        "lng": "16.7881",
        "name": "Fornborgen på Gråborg",
        "description": "fornborg",
        "price_range": "0-25",
        "province": "Öland"
    },
    {
        "id": "923",
        "lat": "56.7000",
        "lng": "16.4000",
        "name": "Källa gamla kyrka",
        "description": "kyrka",
        "price_range": "0-25",
        "province": "Öland"
    },
    {
        "id": "924",
        "lat": "56.7200",
        "lng": "16.7300",
        "name": "Rälla Tall",
        "description": "skog",
        "price_range": "0-25",
        "province": "Öland"
    },
    {
        "id": "925",
        "lat": "56.7200",
        "lng": "16.6500",
        "name": "Ventlinge gravfält",
        "description": "gravfält",
        "price_range": "0-25",
        "province": "Öland"
    }
]